__time,/imu/angular_velocity/x,/imu/angular_velocity/y,/imu/angular_velocity/z,/imu/angular_velocity_covariance[0;0],/imu/angular_velocity_covariance[0;1],/imu/angular_velocity_covariance[0;2],/imu/angular_velocity_covariance[1;1],/imu/angular_velocity_covariance[1;2],/imu/angular_velocity_covariance[2;2],/imu/header/header/stamp,/imu/linear_acceleration/x,/imu/linear_acceleration/y,/imu/linear_acceleration/z,/imu/linear_acceleration_covariance[0;0],/imu/linear_acceleration_covariance[0;1],/imu/linear_acceleration_covariance[0;2],/imu/linear_acceleration_covariance[1;1],/imu/linear_acceleration_covariance[1;2],/imu/linear_acceleration_covariance[2;2],/imu/orientation/pitch,/imu/orientation/roll,/imu/orientation/w,/imu/orientation/x,/imu/orientation/y,/imu/orientation/yaw,/imu/orientation/z,/imu/orientation_covariance[0;0],/imu/orientation_covariance[0;1],/imu/orientation_covariance[0;2],/imu/orientation_covariance[1;1],/imu/orientation_covariance[1;2],/imu/orientation_covariance[2;2]
1725743151.973285,-0.006045712,0.008873782,-0.010112032,0.000000000,0.000000000,0.000000000,0.000000000,0.000000000,0.000000000,1725743151.973058462,9.536311051,1.222900181,10.000611380,0.000000000,0.000000000,0.000000000,0.000000000,0.000000000,0.000000000,0.000000000,0.000000000,1.000000000,0.000000000,0.000000000,0.000000000,0.000000000,0.000000000,0.000000000,0.000000000,0.000000000,0.000000000,0.000000000
1725743152.074513,-0.005754094,0.008633671,-0.011184648,0.000000000,0.000000000,0.000000000,0.000000000,0.000000000,0.000000000,1725743152.074279547,9.548614510,1.222180071,10.009489039,0.000000000,0.000000000,0.000000000,0.000000000,0.000000000,0.000000000,0.000000000,0.000000000,1.000000000,0.000000000,0.000000000,0.000000000,0.000000000,0.000000000,0.000000000,0.000000000,0.000000000,0.000000000,0.000000000
1725743152.158894,-0.005141976,0.010512083,-0.009655873,0.000000000,0.000000000,0.000000000,0.000000000,0.000000000,0.000000000,1725743152.158643007,9.545186161,1.208647409,10.031890516,0.000000000,0.000000000,0.000000000,0.000000000,0.000000000,0.000000000,0.000000000,0.000000000,1.000000000,0.000000000,0.000000000,0.000000000,0.000000000,0.000000000,0.000000000,0.000000000,0.000000000,0.000000000,0.000000000
1725743152.259964,-0.004702686,0.008986513,-0.010090566,0.000000000,0.000000000,0.000000000,0.000000000,0.000000000,0.000000000,1725743152.259744167,9.544669497,1.221041234,10.027523627,0.000000000,0.000000000,0.000000000,0.000000000,0.000000000,0.000000000,0.000000000,0.000000000,1.000000000,0.000000000,0.000000000,0.000000000,0.000000000,0.000000000,0.000000000,0.000000000,0.000000000,0.000000000,0.000000000
1725743152.383562,-0.005082581,0.013619589,-0.011307146,0.000000000,0.000000000,0.000000000,0.000000000,0.000000000,0.000000000,1725743152.383050442,9.534831086,1.181732775,10.026537692,0.000000000,0.000000000,0.000000000,0.000000000,0.000000000,0.000000000,0.000000000,0.000000000,1.000000000,0.000000000,0.000000000,0.000000000,0.000000000,0.000000000,0.000000000,0.000000000,0.000000000,0.000000000,0.000000000
1725743152.485352,-0.004672989,0.012472117,-0.011249280,0.000000000,0.000000000,0.000000000,0.000000000,0.000000000,0.000000000,1725743152.484879017,9.613737565,1.223151544,9.991316942,0.000000000,0.000000000,0.000000000,0.000000000,0.000000000,0.000000000,0.000000000,0.000000000,1.000000000,0.000000000,0.000000000,0.000000000,0.000000000,0.000000000,0.000000000,0.000000000,0.000000000,0.000000000,0.000000000
1725743152.579339,-0.005067732,0.011498688,-0.010354345,0.000000000,0.000000000,0.000000000,0.000000000,0.000000000,0.000000000,1725743152.579064846,9.556192513,1.203145596,10.029989526,0.000000000,0.000000000,0.000000000,0.000000000,0.000000000,0.000000000,0.000000000,0.000000000,1.000000000,0.000000000,0.000000000,0.000000000,0.000000000,0.000000000,0.000000000,0.000000000,0.000000000,0.000000000,0.000000000
1725743152.663732,-0.005331720,0.009013507,-0.011439036,0.000000000,0.000000000,0.000000000,0.000000000,0.000000000,0.000000000,1725743152.663365364,9.442396793,1.156019820,10.051720837,0.000000000,0.000000000,0.000000000,0.000000000,0.000000000,0.000000000,0.000000000,0.000000000,1.000000000,0.000000000,0.000000000,0.000000000,0.000000000,0.000000000,0.000000000,0.000000000,0.000000000,0.000000000,0.000000000
1725743152.764788,-0.006063254,0.009236458,-0.011914765,0.000000000,0.000000000,0.000000000,0.000000000,0.000000000,0.000000000,1725743152.764477730,9.410646639,1.181554832,10.048216376,0.000000000,0.000000000,0.000000000,0.000000000,0.000000000,0.000000000,0.000000000,0.000000000,1.000000000,0.000000000,0.000000000,0.000000000,0.000000000,0.000000000,0.000000000,0.000000000,0.000000000,0.000000000,0.000000000
1725743152.887008,-0.006295789,0.010680246,-0.011020166,0.000000000,0.000000000,0.000000000,0.000000000,0.000000000,0.000000000,1725743152.886776209,9.502547441,1.172767162,10.028501498,0.000000000,0.000000000,0.000000000,0.000000000,0.000000000,0.000000000,0.000000000,0.000000000,1.000000000,0.000000000,0.000000000,0.000000000,0.000000000,0.000000000,0.000000000,0.000000000,0.000000000,0.000000000,0.000000000
1725743152.991511,-0.005745902,0.008604285,-0.012105024,0.000000000,0.000000000,0.000000000,0.000000000,0.000000000,0.000000000,1725743152.990976810,9.458684609,1.170768347,10.017446550,0.000000000,0.000000000,0.000000000,0.000000000,0.000000000,0.000000000,0.000000000,0.000000000,1.000000000,0.000000000,0.000000000,0.000000000,0.000000000,0.000000000,0.000000000,0.000000000,0.000000000,0.000000000,0.000000000
1725743153.076129,-0.006137114,0.008632154,-0.009916215,0.000000000,0.000000000,0.000000000,0.000000000,0.000000000,0.000000000,1725743153.075875044,9.463098408,1.170966449,10.043054330,0.000000000,0.000000000,0.000000000,0.000000000,0.000000000,0.000000000,0.000000000,0.000000000,1.000000000,0.000000000,0.000000000,0.000000000,0.000000000,0.000000000,0.000000000,0.000000000,0.000000000,0.000000000,0.000000000
1725743153.177415,-0.006932259,0.009378860,-0.009821043,0.000000000,0.000000000,0.000000000,0.000000000,0.000000000,0.000000000,1725743153.177068472,9.552723520,1.175855539,10.049870671,0.000000000,0.000000000,0.000000000,0.000000000,0.000000000,0.000000000,0.000000000,0.000000000,1.000000000,0.000000000,0.000000000,0.000000000,0.000000000,0.000000000,0.000000000,0.000000000,0.000000000,0.000000000,0.000000000
1725743153.279799,-0.005797674,0.010085291,-0.010239767,0.000000000,0.000000000,0.000000000,0.000000000,0.000000000,0.000000000,1725743153.279161453,9.535265569,1.173510045,10.088006624,0.000000000,0.000000000,0.000000000,0.000000000,0.000000000,0.000000000,0.000000000,0.000000000,1.000000000,0.000000000,0.000000000,0.000000000,0.000000000,0.000000000,0.000000000,0.000000000,0.000000000,0.000000000,0.000000000
1725743153.381037,-0.006096384,0.008373424,-0.009449895,0.000000000,0.000000000,0.000000000,0.000000000,0.000000000,0.000000000,1725743153.380707026,9.578029513,1.174732317,10.046001603,0.000000000,0.000000000,0.000000000,0.000000000,0.000000000,0.000000000,0.000000000,0.000000000,1.000000000,0.000000000,0.000000000,0.000000000,0.000000000,0.000000000,0.000000000,0.000000000,0.000000000,0.000000000,0.000000000
1725743153.482130,-0.005912661,0.007650721,-0.009454653,0.000000000,0.000000000,0.000000000,0.000000000,0.000000000,0.000000000,1725743153.481801748,9.532350938,1.195701120,10.056134347,0.000000000,0.000000000,0.000000000,0.000000000,0.000000000,0.000000000,0.000000000,0.000000000,1.000000000,0.000000000,0.000000000,0.000000000,0.000000000,0.000000000,0.000000000,0.000000000,0.000000000,0.000000000,0.000000000
1725743153.600179,-0.005620953,0.008621681,-0.009856725,0.000000000,0.000000000,0.000000000,0.000000000,0.000000000,0.000000000,1725743153.599829197,9.595732354,1.212173070,10.054015660,0.000000000,0.000000000,0.000000000,0.000000000,0.000000000,0.000000000,0.000000000,0.000000000,1.000000000,0.000000000,0.000000000,0.000000000,0.000000000,0.000000000,0.000000000,0.000000000,0.000000000,0.000000000,0.000000000
1725743153.721733,-0.006341102,0.010705935,-0.009591452,0.000000000,0.000000000,0.000000000,0.000000000,0.000000000,0.000000000,1725743153.721141338,9.580720181,1.174903673,10.067326433,0.000000000,0.000000000,0.000000000,0.000000000,0.000000000,0.000000000,0.000000000,0.000000000,1.000000000,0.000000000,0.000000000,0.000000000,0.000000000,0.000000000,0.000000000,0.000000000,0.000000000,0.000000000,0.000000000
1725743153.789012,-0.006368098,0.011281753,-0.009858509,0.000000000,0.000000000,0.000000000,0.000000000,0.000000000,0.000000000,1725743153.788792372,9.485795881,1.202971856,10.045241586,0.000000000,0.000000000,0.000000000,0.000000000,0.000000000,0.000000000,0.000000000,0.000000000,1.000000000,0.000000000,0.000000000,0.000000000,0.000000000,0.000000000,0.000000000,0.000000000,0.000000000,0.000000000,0.000000000
1725743153.912153,-0.006181749,0.010903506,-0.009525728,0.000000000,0.000000000,0.000000000,0.000000000,0.000000000,0.000000000,1725743153.911854744,9.435938712,1.199043301,10.030606633,0.000000000,0.000000000,0.000000000,0.000000000,0.000000000,0.000000000,0.000000000,0.000000000,1.000000000,0.000000000,0.000000000,0.000000000,0.000000000,0.000000000,0.000000000,0.000000000,0.000000000,0.000000000,0.000000000
1725743153.979584,-0.007287655,0.010714382,-0.009492569,0.000000000,0.000000000,0.000000000,0.000000000,0.000000000,0.000000000,1725743153.979281425,9.458910518,1.186301436,10.025684176,0.000000000,0.000000000,0.000000000,0.000000000,0.000000000,0.000000000,0.000000000,0.000000000,1.000000000,0.000000000,0.000000000,0.000000000,0.000000000,0.000000000,0.000000000,0.000000000,0.000000000,0.000000000,0.000000000
1725743154.081184,-0.005375832,0.009687203,-0.009675836,0.000000000,0.000000000,0.000000000,0.000000000,0.000000000,0.000000000,1725743154.080851316,9.611702574,1.194300620,9.975322557,0.000000000,0.000000000,0.000000000,0.000000000,0.000000000,0.000000000,0.000000000,0.000000000,1.000000000,0.000000000,0.000000000,0.000000000,0.000000000,0.000000000,0.000000000,0.000000000,0.000000000,0.000000000,0.000000000
1725743154.207998,-0.006418388,0.007374993,-0.009700854,0.000000000,0.000000000,0.000000000,0.000000000,0.000000000,0.000000000,1725743154.207816839,9.588705291,1.170757488,9.987264550,0.000000000,0.000000000,0.000000000,0.000000000,0.000000000,0.000000000,0.000000000,0.000000000,1.000000000,0.000000000,0.000000000,0.000000000,0.000000000,0.000000000,0.000000000,0.000000000,0.000000000,0.000000000,0.000000000
1725743154.292702,-0.006007048,0.007084890,-0.008580899,0.000000000,0.000000000,0.000000000,0.000000000,0.000000000,0.000000000,1725743154.292364836,9.562836532,1.206886312,9.993235546,0.000000000,0.000000000,0.000000000,0.000000000,0.000000000,0.000000000,0.000000000,0.000000000,1.000000000,0.000000000,0.000000000,0.000000000,0.000000000,0.000000000,0.000000000,0.000000000,0.000000000,0.000000000,0.000000000
1725743154.393726,-0.006267686,0.008605228,-0.008687077,0.000000000,0.000000000,0.000000000,0.000000000,0.000000000,0.000000000,1725743154.393480062,9.530741996,1.184235392,10.014183691,0.000000000,0.000000000,0.000000000,0.000000000,0.000000000,0.000000000,0.000000000,0.000000000,1.000000000,0.000000000,0.000000000,0.000000000,0.000000000,0.000000000,0.000000000,0.000000000,0.000000000,0.000000000,0.000000000
1725743154.514125,-0.005998312,0.010364630,-0.010672017,0.000000000,0.000000000,0.000000000,0.000000000,0.000000000,0.000000000,1725743154.513833046,9.472781887,1.194465108,10.046212939,0.000000000,0.000000000,0.000000000,0.000000000,0.000000000,0.000000000,0.000000000,0.000000000,1.000000000,0.000000000,0.000000000,0.000000000,0.000000000,0.000000000,0.000000000,0.000000000,0.000000000,0.000000000,0.000000000
1725743154.599330,-0.005597163,0.008446478,-0.010998331,0.000000000,0.000000000,0.000000000,0.000000000,0.000000000,0.000000000,1725743154.598763704,9.488109693,1.194789927,10.034684839,0.000000000,0.000000000,0.000000000,0.000000000,0.000000000,0.000000000,0.000000000,0.000000000,1.000000000,0.000000000,0.000000000,0.000000000,0.000000000,0.000000000,0.000000000,0.000000000,0.000000000,0.000000000,0.000000000
1725743154.700541,-0.006262591,0.008753097,-0.010628564,0.000000000,0.000000000,0.000000000,0.000000000,0.000000000,0.000000000,1725743154.700259924,9.479008460,1.172199651,10.067241101,0.000000000,0.000000000,0.000000000,0.000000000,0.000000000,0.000000000,0.000000000,0.000000000,1.000000000,0.000000000,0.000000000,0.000000000,0.000000000,0.000000000,0.000000000,0.000000000,0.000000000,0.000000000,0.000000000
1725743154.801784,-0.006462074,0.009306100,-0.009844140,0.000000000,0.000000000,0.000000000,0.000000000,0.000000000,0.000000000,1725743154.801483631,9.522358234,1.188447238,10.048791449,0.000000000,0.000000000,0.000000000,0.000000000,0.000000000,0.000000000,0.000000000,0.000000000,1.000000000,0.000000000,0.000000000,0.000000000,0.000000000,0.000000000,0.000000000,0.000000000,0.000000000,0.000000000,0.000000000
1725743154.903057,-0.006761662,0.009515986,-0.011850089,0.000000000,0.000000000,0.000000000,0.000000000,0.000000000,0.000000000,1725743154.902583122,9.585945963,1.169028306,10.040764133,0.000000000,0.000000000,0.000000000,0.000000000,0.000000000,0.000000000,0.000000000,0.000000000,1.000000000,0.000000000,0.000000000,0.000000000,0.000000000,0.000000000,0.000000000,0.000000000,0.000000000,0.000000000,0.000000000
1725743155.005198,-0.006311916,0.008688311,-0.010188441,0.000000000,0.000000000,0.000000000,0.000000000,0.000000000,0.000000000,1725743155.004636049,9.432125813,1.174886468,10.039145494,0.000000000,0.000000000,0.000000000,0.000000000,0.000000000,0.000000000,0.000000000,0.000000000,1.000000000,0.000000000,0.000000000,0.000000000,0.000000000,0.000000000,0.000000000,0.000000000,0.000000000,0.000000000,0.000000000
1725743155.090281,-0.006819814,0.008874014,-0.009957156,0.000000000,0.000000000,0.000000000,0.000000000,0.000000000,0.000000000,1725743155.089811325,9.435448893,1.186198117,10.032348626,0.000000000,0.000000000,0.000000000,0.000000000,0.000000000,0.000000000,0.000000000,0.000000000,1.000000000,0.000000000,0.000000000,0.000000000,0.000000000,0.000000000,0.000000000,0.000000000,0.000000000,0.000000000,0.000000000
1725743155.192789,-0.007273610,0.007234861,-0.008575819,0.000000000,0.000000000,0.000000000,0.000000000,0.000000000,0.000000000,1725743155.192223549,9.499380941,1.203829039,10.038530270,0.000000000,0.000000000,0.000000000,0.000000000,0.000000000,0.000000000,0.000000000,0.000000000,1.000000000,0.000000000,0.000000000,0.000000000,0.000000000,0.000000000,0.000000000,0.000000000,0.000000000,0.000000000,0.000000000
1725743155.294910,-0.007100814,0.007081440,-0.009883617,0.000000000,0.000000000,0.000000000,0.000000000,0.000000000,0.000000000,1725743155.294432402,9.579247355,1.206656951,10.030843504,0.000000000,0.000000000,0.000000000,0.000000000,0.000000000,0.000000000,0.000000000,0.000000000,1.000000000,0.000000000,0.000000000,0.000000000,0.000000000,0.000000000,0.000000000,0.000000000,0.000000000,0.000000000,0.000000000
1725743155.397417,-0.005815336,0.008403656,-0.009205204,0.000000000,0.000000000,0.000000000,0.000000000,0.000000000,0.000000000,1725743155.396762848,9.435961568,1.182923202,10.028197631,0.000000000,0.000000000,0.000000000,0.000000000,0.000000000,0.000000000,0.000000000,0.000000000,1.000000000,0.000000000,0.000000000,0.000000000,0.000000000,0.000000000,0.000000000,0.000000000,0.000000000,0.000000000,0.000000000
1725743155.521690,-0.004972751,0.007732453,-0.009732001,0.000000000,0.000000000,0.000000000,0.000000000,0.000000000,0.000000000,1725743155.521139383,9.510414866,1.187821464,10.049627380,0.000000000,0.000000000,0.000000000,0.000000000,0.000000000,0.000000000,0.000000000,0.000000000,1.000000000,0.000000000,0.000000000,0.000000000,0.000000000,0.000000000,0.000000000,0.000000000,0.000000000,0.000000000,0.000000000
1725743155.622877,-0.005084382,0.008595931,-0.009196012,0.000000000,0.000000000,0.000000000,0.000000000,0.000000000,0.000000000,1725743155.622365236,9.497346105,1.190270595,10.017231903,0.000000000,0.000000000,0.000000000,0.000000000,0.000000000,0.000000000,0.000000000,0.000000000,1.000000000,0.000000000,0.000000000,0.000000000,0.000000000,0.000000000,0.000000000,0.000000000,0.000000000,0.000000000,0.000000000
1725743155.708234,-0.005073583,0.008694593,-0.009594173,0.000000000,0.000000000,0.000000000,0.000000000,0.000000000,0.000000000,1725743155.707769156,9.506379351,1.157964888,10.027379379,0.000000000,0.000000000,0.000000000,0.000000000,0.000000000,0.000000000,0.000000000,0.000000000,1.000000000,0.000000000,0.000000000,0.000000000,0.000000000,0.000000000,0.000000000,0.000000000,0.000000000,0.000000000,0.000000000
1725743155.827218,-0.006400494,0.006812072,-0.010192947,0.000000000,0.000000000,0.000000000,0.000000000,0.000000000,0.000000000,1725743155.826889992,9.512093484,1.183724875,10.008502922,0.000000000,0.000000000,0.000000000,0.000000000,0.000000000,0.000000000,0.000000000,0.000000000,1.000000000,0.000000000,0.000000000,0.000000000,0.000000000,0.000000000,0.000000000,0.000000000,0.000000000,0.000000000,0.000000000
1725743155.911808,-0.005265329,0.007336354,-0.009759563,0.000000000,0.000000000,0.000000000,0.000000000,0.000000000,0.000000000,1725743155.911474228,9.578418568,1.195407360,10.054150143,0.000000000,0.000000000,0.000000000,0.000000000,0.000000000,0.000000000,0.000000000,0.000000000,1.000000000,0.000000000,0.000000000,0.000000000,0.000000000,0.000000000,0.000000000,0.000000000,0.000000000,0.000000000,0.000000000
1725743156.012980,-0.006429752,0.008531113,-0.010542105,0.000000000,0.000000000,0.000000000,0.000000000,0.000000000,0.000000000,1725743156.012699604,9.536137995,1.197656072,10.047036009,0.000000000,0.000000000,0.000000000,0.000000000,0.000000000,0.000000000,0.000000000,0.000000000,1.000000000,0.000000000,0.000000000,0.000000000,0.000000000,0.000000000,0.000000000,0.000000000,0.000000000,0.000000000,0.000000000
1725743156.134169,-0.006945348,0.009594802,-0.010800144,0.000000000,0.000000000,0.000000000,0.000000000,0.000000000,0.000000000,1725743156.133887768,9.577268216,1.189200351,10.073416686,0.000000000,0.000000000,0.000000000,0.000000000,0.000000000,0.000000000,0.000000000,0.000000000,1.000000000,0.000000000,0.000000000,0.000000000,0.000000000,0.000000000,0.000000000,0.000000000,0.000000000,0.000000000,0.000000000
1725743156.218389,-0.005071447,0.009194028,-0.010396239,0.000000000,0.000000000,0.000000000,0.000000000,0.000000000,0.000000000,1725743156.218091965,9.628968581,1.196947587,10.059064300,0.000000000,0.000000000,0.000000000,0.000000000,0.000000000,0.000000000,0.000000000,0.000000000,1.000000000,0.000000000,0.000000000,0.000000000,0.000000000,0.000000000,0.000000000,0.000000000,0.000000000,0.000000000,0.000000000
1725743156.333152,-0.005400193,0.009726413,-0.010194287,0.000000000,0.000000000,0.000000000,0.000000000,0.000000000,0.000000000,1725743156.332900524,9.568598060,1.158908364,10.032727951,0.000000000,0.000000000,0.000000000,0.000000000,0.000000000,0.000000000,0.000000000,0.000000000,1.000000000,0.000000000,0.000000000,0.000000000,0.000000000,0.000000000,0.000000000,0.000000000,0.000000000,0.000000000,0.000000000
1725743156.400533,-0.005031641,0.011258300,-0.010093311,0.000000000,0.000000000,0.000000000,0.000000000,0.000000000,0.000000000,1725743156.400320292,9.551585407,1.155456379,10.036324913,0.000000000,0.000000000,0.000000000,0.000000000,0.000000000,0.000000000,0.000000000,0.000000000,1.000000000,0.000000000,0.000000000,0.000000000,0.000000000,0.000000000,0.000000000,0.000000000,0.000000000,0.000000000,0.000000000
1725743156.501899,-0.006179677,0.009159775,-0.009776360,0.000000000,0.000000000,0.000000000,0.000000000,0.000000000,0.000000000,1725743156.501579523,9.490388651,1.178878092,10.026148296,0.000000000,0.000000000,0.000000000,0.000000000,0.000000000,0.000000000,0.000000000,0.000000000,1.000000000,0.000000000,0.000000000,0.000000000,0.000000000,0.000000000,0.000000000,0.000000000,0.000000000,0.000000000,0.000000000
1725743156.622703,-0.006220770,0.008843284,-0.009218192,0.000000000,0.000000000,0.000000000,0.000000000,0.000000000,0.000000000,1725743156.622209549,9.465777821,1.169033773,10.005492361,0.000000000,0.000000000,0.000000000,0.000000000,0.000000000,0.000000000,0.000000000,0.000000000,1.000000000,0.000000000,0.000000000,0.000000000,0.000000000,0.000000000,0.000000000,0.000000000,0.000000000,0.000000000,0.000000000
1725743156.708078,-0.005841623,0.009151347,-0.009005723,0.000000000,0.000000000,0.000000000,0.000000000,0.000000000,0.000000000,1725743156.707508326,9.463052485,1.166506632,10.053842372,0.000000000,0.000000000,0.000000000,0.000000000,0.000000000,0.000000000,0.000000000,0.000000000,1.000000000,0.000000000,0.000000000,0.000000000,0.000000000,0.000000000,0.000000000,0.000000000,0.000000000,0.000000000,0.000000000
1725743156.810063,-0.005785281,0.010104765,-0.009299182,0.000000000,0.000000000,0.000000000,0.000000000,0.000000000,0.000000000,1725743156.809564114,9.573058225,1.190390767,10.043289594,0.000000000,0.000000000,0.000000000,0.000000000,0.000000000,0.000000000,0.000000000,0.000000000,1.000000000,0.000000000,0.000000000,0.000000000,0.000000000,0.000000000,0.000000000,0.000000000,0.000000000,0.000000000,0.000000000
1725743156.912312,-0.005890341,0.009981934,-0.009512527,0.000000000,0.000000000,0.000000000,0.000000000,0.000000000,0.000000000,1725743156.911725760,9.522680235,1.197542796,10.014063010,0.000000000,0.000000000,0.000000000,0.000000000,0.000000000,0.000000000,0.000000000,0.000000000,1.000000000,0.000000000,0.000000000,0.000000000,0.000000000,0.000000000,0.000000000,0.000000000,0.000000000,0.000000000,0.000000000
1725743157.014659,-0.005343331,0.010186981,-0.008220273,0.000000000,0.000000000,0.000000000,0.000000000,0.000000000,0.000000000,1725743157.014131546,9.437615753,1.180761144,10.043757579,0.000000000,0.000000000,0.000000000,0.000000000,0.000000000,0.000000000,0.000000000,0.000000000,1.000000000,0.000000000,0.000000000,0.000000000,0.000000000,0.000000000,0.000000000,0.000000000,0.000000000,0.000000000,0.000000000
1725743157.116625,-0.005402903,0.010156273,-0.008506764,0.000000000,0.000000000,0.000000000,0.000000000,0.000000000,0.000000000,1725743157.116156340,9.472921646,1.198715533,10.023877081,0.000000000,0.000000000,0.000000000,0.000000000,0.000000000,0.000000000,0.000000000,0.000000000,1.000000000,0.000000000,0.000000000,0.000000000,0.000000000,0.000000000,0.000000000,0.000000000,0.000000000,0.000000000,0.000000000
1725743157.218716,-0.006765001,0.011073537,-0.008650009,0.000000000,0.000000000,0.000000000,0.000000000,0.000000000,0.000000000,1725743157.218292236,9.464229378,1.184940042,10.049862124,0.000000000,0.000000000,0.000000000,0.000000000,0.000000000,0.000000000,0.000000000,0.000000000,1.000000000,0.000000000,0.000000000,0.000000000,0.000000000,0.000000000,0.000000000,0.000000000,0.000000000,0.000000000,0.000000000
1725743157.342649,-0.007379434,0.009200625,-0.008921478,0.000000000,0.000000000,0.000000000,0.000000000,0.000000000,0.000000000,1725743157.342150688,9.474253361,1.185237355,10.088002351,0.000000000,0.000000000,0.000000000,0.000000000,0.000000000,0.000000000,0.000000000,0.000000000,1.000000000,0.000000000,0.000000000,0.000000000,0.000000000,0.000000000,0.000000000,0.000000000,0.000000000,0.000000000,0.000000000
1725743157.448604,-0.006354340,0.008730477,-0.010456140,0.000000000,0.000000000,0.000000000,0.000000000,0.000000000,0.000000000,1725743157.448060274,9.540338350,1.148263209,10.045999467,0.000000000,0.000000000,0.000000000,0.000000000,0.000000000,0.000000000,0.000000000,0.000000000,1.000000000,0.000000000,0.000000000,0.000000000,0.000000000,0.000000000,0.000000000,0.000000000,0.000000000,0.000000000,0.000000000
1725743157.552796,-0.007040873,0.007496170,-0.009824544,0.000000000,0.000000000,0.000000000,0.000000000,0.000000000,0.000000000,1725743157.552187443,9.500332749,1.177676526,10.048948220,0.000000000,0.000000000,0.000000000,0.000000000,0.000000000,0.000000000,0.000000000,0.000000000,1.000000000,0.000000000,0.000000000,0.000000000,0.000000000,0.000000000,0.000000000,0.000000000,0.000000000,0.000000000,0.000000000
1725743157.621325,-0.005518903,0.010076564,-0.010707826,0.000000000,0.000000000,0.000000000,0.000000000,0.000000000,0.000000000,1725743157.620725632,9.597685906,1.169630499,10.018089832,0.000000000,0.000000000,0.000000000,0.000000000,0.000000000,0.000000000,0.000000000,0.000000000,1.000000000,0.000000000,0.000000000,0.000000000,0.000000000,0.000000000,0.000000000,0.000000000,0.000000000,0.000000000,0.000000000
1725743157.740623,-0.006756385,0.010167680,-0.010616543,0.000000000,0.000000000,0.000000000,0.000000000,0.000000000,0.000000000,1725743157.740028143,9.490686215,1.181175113,10.055351069,0.000000000,0.000000000,0.000000000,0.000000000,0.000000000,0.000000000,0.000000000,0.000000000,1.000000000,0.000000000,0.000000000,0.000000000,0.000000000,0.000000000,0.000000000,0.000000000,0.000000000,0.000000000,0.000000000
1725743157.828588,-0.005709737,0.009214005,-0.008905512,0.000000000,0.000000000,0.000000000,0.000000000,0.000000000,0.000000000,1725743157.828047991,9.424013762,1.190539949,10.053624021,0.000000000,0.000000000,0.000000000,0.000000000,0.000000000,0.000000000,0.000000000,0.000000000,1.000000000,0.000000000,0.000000000,0.000000000,0.000000000,0.000000000,0.000000000,0.000000000,0.000000000,0.000000000,0.000000000
1725743157.932682,-0.003920718,0.010469172,-0.008516305,0.000000000,0.000000000,0.000000000,0.000000000,0.000000000,0.000000000,1725743157.932077408,9.517613570,1.188037309,10.015637694,0.000000000,0.000000000,0.000000000,0.000000000,0.000000000,0.000000000,0.000000000,0.000000000,1.000000000,0.000000000,0.000000000,0.000000000,0.000000000,0.000000000,0.000000000,0.000000000,0.000000000,0.000000000,0.000000000
1725743158.034549,-0.005157906,0.011030140,-0.010053707,0.000000000,0.000000000,0.000000000,0.000000000,0.000000000,0.000000000,1725743158.034042120,9.515315574,1.197563576,10.019397216,0.000000000,0.000000000,0.000000000,0.000000000,0.000000000,0.000000000,0.000000000,0.000000000,1.000000000,0.000000000,0.000000000,0.000000000,0.000000000,0.000000000,0.000000000,0.000000000,0.000000000,0.000000000,0.000000000
1725743158.144796,-0.005576653,0.009911697,-0.009490096,0.000000000,0.000000000,0.000000000,0.000000000,0.000000000,0.000000000,1725743158.144207239,9.465068676,1.205919239,10.033252075,0.000000000,0.000000000,0.000000000,0.000000000,0.000000000,0.000000000,0.000000000,0.000000000,1.000000000,0.000000000,0.000000000,0.000000000,0.000000000,0.000000000,0.000000000,0.000000000,0.000000000,0.000000000,0.000000000
1725743158.230110,-0.005253103,0.009086014,-0.009807831,0.000000000,0.000000000,0.000000000,0.000000000,0.000000000,0.000000000,1725743158.229586601,9.485450598,1.224467188,10.022216858,0.000000000,0.000000000,0.000000000,0.000000000,0.000000000,0.000000000,0.000000000,0.000000000,1.000000000,0.000000000,0.000000000,0.000000000,0.000000000,0.000000000,0.000000000,0.000000000,0.000000000,0.000000000,0.000000000
1725743158.332203,-0.005557636,0.009472559,-0.011498856,0.000000000,0.000000000,0.000000000,0.000000000,0.000000000,0.000000000,1725743158.331706762,9.433371051,1.206198438,10.029871857,0.000000000,0.000000000,0.000000000,0.000000000,0.000000000,0.000000000,0.000000000,0.000000000,1.000000000,0.000000000,0.000000000,0.000000000,0.000000000,0.000000000,0.000000000,0.000000000,0.000000000,0.000000000,0.000000000
1725743158.453547,-0.006309443,0.009465984,-0.010945442,0.000000000,0.000000000,0.000000000,0.000000000,0.000000000,0.000000000,1725743158.453075171,9.450441629,1.200656592,9.995379044,0.000000000,0.000000000,0.000000000,0.000000000,0.000000000,0.000000000,0.000000000,0.000000000,1.000000000,0.000000000,0.000000000,0.000000000,0.000000000,0.000000000,0.000000000,0.000000000,0.000000000,0.000000000,0.000000000
1725743158.538602,-0.005552882,0.008996388,-0.009069962,0.000000000,0.000000000,0.000000000,0.000000000,0.000000000,0.000000000,1725743158.538055658,9.512864857,1.212255786,10.053575752,0.000000000,0.000000000,0.000000000,0.000000000,0.000000000,0.000000000,0.000000000,0.000000000,1.000000000,0.000000000,0.000000000,0.000000000,0.000000000,0.000000000,0.000000000,0.000000000,0.000000000,0.000000000,0.000000000
1725743158.640787,-0.004908139,0.007762357,-0.009264686,0.000000000,0.000000000,0.000000000,0.000000000,0.000000000,0.000000000,1725743158.640214682,9.491386042,1.207277795,10.016811069,0.000000000,0.000000000,0.000000000,0.000000000,0.000000000,0.000000000,0.000000000,0.000000000,1.000000000,0.000000000,0.000000000,0.000000000,0.000000000,0.000000000,0.000000000,0.000000000,0.000000000,0.000000000,0.000000000
1725743158.726012,-0.004052843,0.009476886,-0.008362814,0.000000000,0.000000000,0.000000000,0.000000000,0.000000000,0.000000000,1725743158.725424767,9.461486478,1.174851056,10.041539080,0.000000000,0.000000000,0.000000000,0.000000000,0.000000000,0.000000000,0.000000000,0.000000000,1.000000000,0.000000000,0.000000000,0.000000000,0.000000000,0.000000000,0.000000000,0.000000000,0.000000000,0.000000000,0.000000000
1725743158.828694,-0.006156586,0.008535530,-0.008711266,0.000000000,0.000000000,0.000000000,0.000000000,0.000000000,0.000000000,1725743158.828136444,9.436956618,1.189772940,10.043125497,0.000000000,0.000000000,0.000000000,0.000000000,0.000000000,0.000000000,0.000000000,0.000000000,1.000000000,0.000000000,0.000000000,0.000000000,0.000000000,0.000000000,0.000000000,0.000000000,0.000000000,0.000000000,0.000000000
1725743158.931150,-0.006542303,0.008331314,-0.009018722,0.000000000,0.000000000,0.000000000,0.000000000,0.000000000,0.000000000,1725743158.930541992,9.435469276,1.209208980,10.065473881,0.000000000,0.000000000,0.000000000,0.000000000,0.000000000,0.000000000,0.000000000,0.000000000,1.000000000,0.000000000,0.000000000,0.000000000,0.000000000,0.000000000,0.000000000,0.000000000,0.000000000,0.000000000,0.000000000
1725743159.033334,-0.006402083,0.008961978,-0.009572144,0.000000000,0.000000000,0.000000000,0.000000000,0.000000000,0.000000000,1725743159.032796383,9.542501484,1.194976804,10.064672976,0.000000000,0.000000000,0.000000000,0.000000000,0.000000000,0.000000000,0.000000000,0.000000000,1.000000000,0.000000000,0.000000000,0.000000000,0.000000000,0.000000000,0.000000000,0.000000000,0.000000000,0.000000000,0.000000000
1725743159.152515,-0.005998895,0.008078229,-0.009116084,0.000000000,0.000000000,0.000000000,0.000000000,0.000000000,0.000000000,1725743159.151969671,9.515784433,1.196243285,10.039124818,0.000000000,0.000000000,0.000000000,0.000000000,0.000000000,0.000000000,0.000000000,0.000000000,1.000000000,0.000000000,0.000000000,0.000000000,0.000000000,0.000000000,0.000000000,0.000000000,0.000000000,0.000000000,0.000000000
1725743159.254605,-0.007062997,0.007236662,-0.009487594,0.000000000,0.000000000,0.000000000,0.000000000,0.000000000,0.000000000,1725743159.254077435,9.495240849,1.189691467,10.068263581,0.000000000,0.000000000,0.000000000,0.000000000,0.000000000,0.000000000,0.000000000,0.000000000,1.000000000,0.000000000,0.000000000,0.000000000,0.000000000,0.000000000,0.000000000,0.000000000,0.000000000,0.000000000,0.000000000
1725743159.339955,-0.005996274,0.008014958,-0.009939811,0.000000000,0.000000000,0.000000000,0.000000000,0.000000000,0.000000000,1725743159.339390993,9.516104311,1.167255401,10.074450394,0.000000000,0.000000000,0.000000000,0.000000000,0.000000000,0.000000000,0.000000000,0.000000000,1.000000000,0.000000000,0.000000000,0.000000000,0.000000000,0.000000000,0.000000000,0.000000000,0.000000000,0.000000000,0.000000000
1725743159.449670,-0.006129069,0.008004413,-0.009366533,0.000000000,0.000000000,0.000000000,0.000000000,0.000000000,0.000000000,1725743159.449130535,9.495400789,1.193160171,10.077543800,0.000000000,0.000000000,0.000000000,0.000000000,0.000000000,0.000000000,0.000000000,0.000000000,1.000000000,0.000000000,0.000000000,0.000000000,0.000000000,0.000000000,0.000000000,0.000000000,0.000000000,0.000000000,0.000000000
1725743159.534895,-0.005929004,0.010996841,-0.009412971,0.000000000,0.000000000,0.000000000,0.000000000,0.000000000,0.000000000,1725743159.534394026,9.500616654,1.183359871,10.067115406,0.000000000,0.000000000,0.000000000,0.000000000,0.000000000,0.000000000,0.000000000,0.000000000,1.000000000,0.000000000,0.000000000,0.000000000,0.000000000,0.000000000,0.000000000,0.000000000,0.000000000,0.000000000,0.000000000
1725743159.657658,-0.004896353,0.008762583,-0.009502806,0.000000000,0.000000000,0.000000000,0.000000000,0.000000000,0.000000000,1725743159.657129526,9.427781472,1.174867191,10.072678797,0.000000000,0.000000000,0.000000000,0.000000000,0.000000000,0.000000000,0.000000000,0.000000000,1.000000000,0.000000000,0.000000000,0.000000000,0.000000000,0.000000000,0.000000000,0.000000000,0.000000000,0.000000000,0.000000000
1725743159.743485,-0.004380028,0.008378225,-0.009281261,0.000000000,0.000000000,0.000000000,0.000000000,0.000000000,0.000000000,1725743159.742836714,9.463214466,1.194571047,10.044325238,0.000000000,0.000000000,0.000000000,0.000000000,0.000000000,0.000000000,0.000000000,0.000000000,1.000000000,0.000000000,0.000000000,0.000000000,0.000000000,0.000000000,0.000000000,0.000000000,0.000000000,0.000000000,0.000000000
1725743159.869831,-0.005654023,0.007719738,-0.009503567,0.000000000,0.000000000,0.000000000,0.000000000,0.000000000,0.000000000,1725743159.869228840,9.592299372,1.157720094,9.990630637,0.000000000,0.000000000,0.000000000,0.000000000,0.000000000,0.000000000,0.000000000,0.000000000,1.000000000,0.000000000,0.000000000,0.000000000,0.000000000,0.000000000,0.000000000,0.000000000,0.000000000,0.000000000,0.000000000
1725743159.964804,-0.006024559,0.009255729,-0.009281642,0.000000000,0.000000000,0.000000000,0.000000000,0.000000000,0.000000000,1725743159.964218855,9.577806180,1.166837342,9.957795787,0.000000000,0.000000000,0.000000000,0.000000000,0.000000000,0.000000000,0.000000000,0.000000000,1.000000000,0.000000000,0.000000000,0.000000000,0.000000000,0.000000000,0.000000000,0.000000000,0.000000000,0.000000000,0.000000000
1725743160.065853,-0.005610286,0.010756497,-0.009703604,0.000000000,0.000000000,0.000000000,0.000000000,0.000000000,0.000000000,1725743160.065289021,9.580139662,1.177383515,9.970118597,0.000000000,0.000000000,0.000000000,0.000000000,0.000000000,0.000000000,0.000000000,0.000000000,1.000000000,0.000000000,0.000000000,0.000000000,0.000000000,0.000000000,0.000000000,0.000000000,0.000000000,0.000000000,0.000000000
1725743160.167965,-0.006269153,0.009841491,-0.009981200,0.000000000,0.000000000,0.000000000,0.000000000,0.000000000,0.000000000,1725743160.167308331,9.550171150,1.182656601,10.005020236,0.000000000,0.000000000,0.000000000,0.000000000,0.000000000,0.000000000,0.000000000,0.000000000,1.000000000,0.000000000,0.000000000,0.000000000,0.000000000,0.000000000,0.000000000,0.000000000,0.000000000,0.000000000,0.000000000
1725743160.268678,-0.005999046,0.010583068,-0.009853536,0.000000000,0.000000000,0.000000000,0.000000000,0.000000000,0.000000000,1725743160.268203259,9.476508915,1.202058281,9.987743272,0.000000000,0.000000000,0.000000000,0.000000000,0.000000000,0.000000000,0.000000000,0.000000000,1.000000000,0.000000000,0.000000000,0.000000000,0.000000000,0.000000000,0.000000000,0.000000000,0.000000000,0.000000000,0.000000000
1725743160.369723,-0.006796610,0.010487548,-0.010122782,0.000000000,0.000000000,0.000000000,0.000000000,0.000000000,0.000000000,1725743160.369140148,9.513923403,1.202179043,10.022215142,0.000000000,0.000000000,0.000000000,0.000000000,0.000000000,0.000000000,0.000000000,0.000000000,1.000000000,0.000000000,0.000000000,0.000000000,0.000000000,0.000000000,0.000000000,0.000000000,0.000000000,0.000000000,0.000000000
1725743160.455173,-0.006529236,0.010306557,-0.009990943,0.000000000,0.000000000,0.000000000,0.000000000,0.000000000,0.000000000,1725743160.454607487,9.501495393,1.219004560,10.005920803,0.000000000,0.000000000,0.000000000,0.000000000,0.000000000,0.000000000,0.000000000,0.000000000,1.000000000,0.000000000,0.000000000,0.000000000,0.000000000,0.000000000,0.000000000,0.000000000,0.000000000,0.000000000,0.000000000
1725743160.576104,-0.005995856,0.010082830,-0.009725176,0.000000000,0.000000000,0.000000000,0.000000000,0.000000000,0.000000000,1725743160.575661421,9.462948624,1.236997397,10.043279005,0.000000000,0.000000000,0.000000000,0.000000000,0.000000000,0.000000000,0.000000000,0.000000000,1.000000000,0.000000000,0.000000000,0.000000000,0.000000000,0.000000000,0.000000000,0.000000000,0.000000000,0.000000000,0.000000000
1725743160.644042,-0.004796548,0.009104965,-0.008926138,0.000000000,0.000000000,0.000000000,0.000000000,0.000000000,0.000000000,1725743160.643712997,9.455650337,1.232821208,10.065550635,0.000000000,0.000000000,0.000000000,0.000000000,0.000000000,0.000000000,0.000000000,0.000000000,1.000000000,0.000000000,0.000000000,0.000000000,0.000000000,0.000000000,0.000000000,0.000000000,0.000000000,0.000000000,0.000000000
1725743160.767951,-0.005795668,0.011214039,-0.008526618,0.000000000,0.000000000,0.000000000,0.000000000,0.000000000,0.000000000,1725743160.767275095,9.474753880,1.212770468,10.033576099,0.000000000,0.000000000,0.000000000,0.000000000,0.000000000,0.000000000,0.000000000,0.000000000,1.000000000,0.000000000,0.000000000,0.000000000,0.000000000,0.000000000,0.000000000,0.000000000,0.000000000,0.000000000,0.000000000
1725743160.856766,-0.005629072,0.009004413,-0.008659936,0.000000000,0.000000000,0.000000000,0.000000000,0.000000000,0.000000000,1725743160.856181622,9.501070787,1.191967509,10.076266809,0.000000000,0.000000000,0.000000000,0.000000000,0.000000000,0.000000000,0.000000000,0.000000000,1.000000000,0.000000000,0.000000000,0.000000000,0.000000000,0.000000000,0.000000000,0.000000000,0.000000000,0.000000000,0.000000000
1725743160.970391,-0.005212696,0.008232678,-0.008926442,0.000000000,0.000000000,0.000000000,0.000000000,0.000000000,0.000000000,1725743160.969937801,9.563327142,1.212701284,10.028156598,0.000000000,0.000000000,0.000000000,0.000000000,0.000000000,0.000000000,0.000000000,0.000000000,1.000000000,0.000000000,0.000000000,0.000000000,0.000000000,0.000000000,0.000000000,0.000000000,0.000000000,0.000000000,0.000000000
1725743161.067627,-0.006270204,0.011044358,-0.008926464,0.000000000,0.000000000,0.000000000,0.000000000,0.000000000,0.000000000,1725743161.067111731,9.546554928,1.206303035,10.020866629,0.000000000,0.000000000,0.000000000,0.000000000,0.000000000,0.000000000,0.000000000,0.000000000,1.000000000,0.000000000,0.000000000,0.000000000,0.000000000,0.000000000,0.000000000,0.000000000,0.000000000,0.000000000,0.000000000
1725743161.153046,-0.005932956,0.009785575,-0.009059706,0.000000000,0.000000000,0.000000000,0.000000000,0.000000000,0.000000000,1725743161.152604103,9.560921507,1.171968656,10.038776820,0.000000000,0.000000000,0.000000000,0.000000000,0.000000000,0.000000000,0.000000000,0.000000000,1.000000000,0.000000000,0.000000000,0.000000000,0.000000000,0.000000000,0.000000000,0.000000000,0.000000000,0.000000000,0.000000000
1725743161.273515,-0.005830947,0.009489261,-0.009592636,0.000000000,0.000000000,0.000000000,0.000000000,0.000000000,0.000000000,1725743161.273011684,9.442366271,1.175159133,10.056114484,0.000000000,0.000000000,0.000000000,0.000000000,0.000000000,0.000000000,0.000000000,0.000000000,1.000000000,0.000000000,0.000000000,0.000000000,0.000000000,0.000000000,0.000000000,0.000000000,0.000000000,0.000000000,0.000000000
1725743161.358056,-0.005513481,0.011073109,-0.008526789,0.000000000,0.000000000,0.000000000,0.000000000,0.000000000,0.000000000,1725743161.357768297,9.489667022,1.212679664,10.021672965,0.000000000,0.000000000,0.000000000,0.000000000,0.000000000,0.000000000,0.000000000,0.000000000,1.000000000,0.000000000,0.000000000,0.000000000,0.000000000,0.000000000,0.000000000,0.000000000,0.000000000,0.000000000,0.000000000
1725743161.459412,-0.006220750,0.009000564,-0.008127097,0.000000000,0.000000000,0.000000000,0.000000000,0.000000000,0.000000000,1725743161.459091902,9.581575455,1.194317127,10.030797420,0.000000000,0.000000000,0.000000000,0.000000000,0.000000000,0.000000000,0.000000000,0.000000000,1.000000000,0.000000000,0.000000000,0.000000000,0.000000000,0.000000000,0.000000000,0.000000000,0.000000000,0.000000000,0.000000000
1725743161.578888,-0.005974844,0.009696296,-0.008260329,0.000000000,0.000000000,0.000000000,0.000000000,0.000000000,0.000000000,1725743161.578317881,9.475445930,1.186333368,10.020989530,0.000000000,0.000000000,0.000000000,0.000000000,0.000000000,0.000000000,0.000000000,0.000000000,1.000000000,0.000000000,0.000000000,0.000000000,0.000000000,0.000000000,0.000000000,0.000000000,0.000000000,0.000000000,0.000000000
1725743161.664093,-0.005718660,0.010110778,-0.007993867,0.000000000,0.000000000,0.000000000,0.000000000,0.000000000,0.000000000,1725743161.663613081,9.534947086,1.179946469,10.056800917,0.000000000,0.000000000,0.000000000,0.000000000,0.000000000,0.000000000,0.000000000,0.000000000,1.000000000,0.000000000,0.000000000,0.000000000,0.000000000,0.000000000,0.000000000,0.000000000,0.000000000,0.000000000,0.000000000
1725743161.766217,-0.005657184,0.009984941,-0.008793254,0.000000000,0.000000000,0.000000000,0.000000000,0.000000000,0.000000000,1725743161.765717983,9.466501863,1.193518156,10.063929023,0.000000000,0.000000000,0.000000000,0.000000000,0.000000000,0.000000000,0.000000000,0.000000000,1.000000000,0.000000000,0.000000000,0.000000000,0.000000000,0.000000000,0.000000000,0.000000000,0.000000000,0.000000000,0.000000000
1725743161.878536,-0.004893674,0.009255866,-0.008393561,0.000000000,0.000000000,0.000000000,0.000000000,0.000000000,0.000000000,1725743161.878094912,9.477784623,1.173958785,10.025580234,0.000000000,0.000000000,0.000000000,0.000000000,0.000000000,0.000000000,0.000000000,0.000000000,1.000000000,0.000000000,0.000000000,0.000000000,0.000000000,0.000000000,0.000000000,0.000000000,0.000000000,0.000000000,0.000000000
1725743161.963730,-0.006044078,0.009757332,-0.008993101,0.000000000,0.000000000,0.000000000,0.000000000,0.000000000,0.000000000,1725743161.963310957,9.437920632,1.198906883,10.009998369,0.000000000,0.000000000,0.000000000,0.000000000,0.000000000,0.000000000,0.000000000,0.000000000,1.000000000,0.000000000,0.000000000,0.000000000,0.000000000,0.000000000,0.000000000,0.000000000,0.000000000,0.000000000,0.000000000
1725743162.082869,-0.006419433,0.009075446,-0.010092258,0.000000000,0.000000000,0.000000000,0.000000000,0.000000000,0.000000000,1725743162.082321167,9.518579457,1.207788402,10.011787515,0.000000000,0.000000000,0.000000000,0.000000000,0.000000000,0.000000000,0.000000000,0.000000000,1.000000000,0.000000000,0.000000000,0.000000000,0.000000000,0.000000000,0.000000000,0.000000000,0.000000000,0.000000000,0.000000000
1725743162.151588,-0.006074186,0.008001732,-0.009775834,0.000000000,0.000000000,0.000000000,0.000000000,0.000000000,0.000000000,1725743162.151036263,9.458318049,1.221809240,10.060582478,0.000000000,0.000000000,0.000000000,0.000000000,0.000000000,0.000000000,0.000000000,0.000000000,1.000000000,0.000000000,0.000000000,0.000000000,0.000000000,0.000000000,0.000000000,0.000000000,0.000000000,0.000000000,0.000000000
1725743162.270750,-0.006834180,0.008863802,-0.010283778,0.000000000,0.000000000,0.000000000,0.000000000,0.000000000,0.000000000,1725743162.270238876,9.482075284,1.197684405,10.047857157,0.000000000,0.000000000,0.000000000,0.000000000,0.000000000,0.000000000,0.000000000,0.000000000,1.000000000,0.000000000,0.000000000,0.000000000,0.000000000,0.000000000,0.000000000,0.000000000,0.000000000,0.000000000,0.000000000
1725743162.373360,-0.007080946,0.009161606,-0.010670981,0.000000000,0.000000000,0.000000000,0.000000000,0.000000000,0.000000000,1725743162.372881174,9.390968062,1.210769693,10.060654653,0.000000000,0.000000000,0.000000000,0.000000000,0.000000000,0.000000000,0.000000000,0.000000000,1.000000000,0.000000000,0.000000000,0.000000000,0.000000000,0.000000000,0.000000000,0.000000000,0.000000000,0.000000000,0.000000000
1725743162.484932,-0.007404176,0.008111428,-0.009865349,0.000000000,0.000000000,0.000000000,0.000000000,0.000000000,0.000000000,1725743162.484265089,9.381339744,1.208929768,10.019153010,0.000000000,0.000000000,0.000000000,0.000000000,0.000000000,0.000000000,0.000000000,0.000000000,1.000000000,0.000000000,0.000000000,0.000000000,0.000000000,0.000000000,0.000000000,0.000000000,0.000000000,0.000000000,0.000000000
1725743162.570310,-0.006100248,0.008585572,-0.008862993,0.000000000,0.000000000,0.000000000,0.000000000,0.000000000,0.000000000,1725743162.569881916,9.443586132,1.202022257,10.004389737,0.000000000,0.000000000,0.000000000,0.000000000,0.000000000,0.000000000,0.000000000,0.000000000,1.000000000,0.000000000,0.000000000,0.000000000,0.000000000,0.000000000,0.000000000,0.000000000,0.000000000,0.000000000,0.000000000
1725743162.720191,-0.005181822,0.010754496,-0.009760741,0.000000000,0.000000000,0.000000000,0.000000000,0.000000000,0.000000000,1725743162.719816446,9.486684423,1.194975972,9.976650435,0.000000000,0.000000000,0.000000000,0.000000000,0.000000000,0.000000000,0.000000000,0.000000000,1.000000000,0.000000000,0.000000000,0.000000000,0.000000000,0.000000000,0.000000000,0.000000000,0.000000000,0.000000000,0.000000000
1725743162.788534,-0.005721843,0.009174335,-0.010342847,0.000000000,0.000000000,0.000000000,0.000000000,0.000000000,0.000000000,1725743162.788080215,9.463925708,1.207020457,9.979545921,0.000000000,0.000000000,0.000000000,0.000000000,0.000000000,0.000000000,0.000000000,0.000000000,1.000000000,0.000000000,0.000000000,0.000000000,0.000000000,0.000000000,0.000000000,0.000000000,0.000000000,0.000000000,0.000000000
1725743162.891180,-0.006191699,0.008783948,-0.009234973,0.000000000,0.000000000,0.000000000,0.000000000,0.000000000,0.000000000,1725743162.890550613,9.374708215,1.204660131,10.044461681,0.000000000,0.000000000,0.000000000,0.000000000,0.000000000,0.000000000,0.000000000,0.000000000,1.000000000,0.000000000,0.000000000,0.000000000,0.000000000,0.000000000,0.000000000,0.000000000,0.000000000,0.000000000,0.000000000
1725743162.961717,-0.006426628,0.010054297,-0.008681036,0.000000000,0.000000000,0.000000000,0.000000000,0.000000000,0.000000000,1725743162.961135387,9.373209820,1.197492419,10.031414190,0.000000000,0.000000000,0.000000000,0.000000000,0.000000000,0.000000000,0.000000000,0.000000000,1.000000000,0.000000000,0.000000000,0.000000000,0.000000000,0.000000000,0.000000000,0.000000000,0.000000000,0.000000000,0.000000000
1725743163.066730,-0.007010401,0.011488858,-0.009669763,0.000000000,0.000000000,0.000000000,0.000000000,0.000000000,0.000000000,1725743163.066111803,9.508976736,1.196303583,10.060815738,0.000000000,0.000000000,0.000000000,0.000000000,0.000000000,0.000000000,0.000000000,0.000000000,1.000000000,0.000000000,0.000000000,0.000000000,0.000000000,0.000000000,0.000000000,0.000000000,0.000000000,0.000000000,0.000000000
1725743163.192674,-0.006769363,0.010807212,-0.009831049,0.000000000,0.000000000,0.000000000,0.000000000,0.000000000,0.000000000,1725743163.192078352,9.550514980,1.176549008,10.081504060,0.000000000,0.000000000,0.000000000,0.000000000,0.000000000,0.000000000,0.000000000,0.000000000,1.000000000,0.000000000,0.000000000,0.000000000,0.000000000,0.000000000,0.000000000,0.000000000,0.000000000,0.000000000,0.000000000
1725743163.294880,-0.006848691,0.009400540,-0.008712612,0.000000000,0.000000000,0.000000000,0.000000000,0.000000000,0.000000000,1725743163.294273376,9.550926435,1.167869231,10.053527909,0.000000000,0.000000000,0.000000000,0.000000000,0.000000000,0.000000000,0.000000000,0.000000000,1.000000000,0.000000000,0.000000000,0.000000000,0.000000000,0.000000000,0.000000000,0.000000000,0.000000000,0.000000000,0.000000000
1725743163.381549,-0.006022352,0.011361826,-0.008819549,0.000000000,0.000000000,0.000000000,0.000000000,0.000000000,0.000000000,1725743163.381063700,9.609810141,1.181491988,10.053909951,0.000000000,0.000000000,0.000000000,0.000000000,0.000000000,0.000000000,0.000000000,0.000000000,1.000000000,0.000000000,0.000000000,0.000000000,0.000000000,0.000000000,0.000000000,0.000000000,0.000000000,0.000000000,0.000000000
1725743163.500739,-0.005809030,0.010144156,-0.009539173,0.000000000,0.000000000,0.000000000,0.000000000,0.000000000,0.000000000,1725743163.500092268,9.483575725,1.178723289,10.054100971,0.000000000,0.000000000,0.000000000,0.000000000,0.000000000,0.000000000,0.000000000,0.000000000,1.000000000,0.000000000,0.000000000,0.000000000,0.000000000,0.000000000,0.000000000,0.000000000,0.000000000,0.000000000,0.000000000
1725743163.602836,-0.006235293,0.010001630,-0.009299445,0.000000000,0.000000000,0.000000000,0.000000000,0.000000000,0.000000000,1725743163.602250814,9.476741476,1.155783764,10.023061228,0.000000000,0.000000000,0.000000000,0.000000000,0.000000000,0.000000000,0.000000000,0.000000000,1.000000000,0.000000000,0.000000000,0.000000000,0.000000000,0.000000000,0.000000000,0.000000000,0.000000000,0.000000000,0.000000000
1725743163.699854,-0.006448425,0.009064364,-0.009645890,0.000000000,0.000000000,0.000000000,0.000000000,0.000000000,0.000000000,1725743163.699232101,9.528409800,1.174251745,10.036281591,0.000000000,0.000000000,0.000000000,0.000000000,0.000000000,0.000000000,0.000000000,0.000000000,1.000000000,0.000000000,0.000000000,0.000000000,0.000000000,0.000000000,0.000000000,0.000000000,0.000000000,0.000000000,0.000000000
1725743163.785131,-0.004489908,0.010194505,-0.009952343,0.000000000,0.000000000,0.000000000,0.000000000,0.000000000,0.000000000,1725743163.784610033,9.475208318,1.199053363,10.086002123,0.000000000,0.000000000,0.000000000,0.000000000,0.000000000,0.000000000,0.000000000,0.000000000,1.000000000,0.000000000,0.000000000,0.000000000,0.000000000,0.000000000,0.000000000,0.000000000,0.000000000,0.000000000,0.000000000
1725743163.887286,-0.005375886,0.009560495,-0.007307716,0.000000000,0.000000000,0.000000000,0.000000000,0.000000000,0.000000000,1725743163.886887312,9.458187655,1.195886545,10.046196862,0.000000000,0.000000000,0.000000000,0.000000000,0.000000000,0.000000000,0.000000000,0.000000000,1.000000000,0.000000000,0.000000000,0.000000000,0.000000000,0.000000000,0.000000000,0.000000000,0.000000000,0.000000000,0.000000000
1725743163.989957,-0.006485030,0.008910413,-0.007117868,0.000000000,0.000000000,0.000000000,0.000000000,0.000000000,0.000000000,1725743163.989340782,9.432912187,1.189513097,10.055034466,0.000000000,0.000000000,0.000000000,0.000000000,0.000000000,0.000000000,0.000000000,0.000000000,1.000000000,0.000000000,0.000000000,0.000000000,0.000000000,0.000000000,0.000000000,0.000000000,0.000000000,0.000000000,0.000000000
1725743164.107755,-0.004841289,0.009784451,-0.008754948,0.000000000,0.000000000,0.000000000,0.000000000,0.000000000,0.000000000,1725743164.107168913,9.464582314,1.209079058,10.049873190,0.000000000,0.000000000,0.000000000,0.000000000,0.000000000,0.000000000,0.000000000,0.000000000,1.000000000,0.000000000,0.000000000,0.000000000,0.000000000,0.000000000,0.000000000,0.000000000,0.000000000,0.000000000,0.000000000
1725743164.193004,-0.004952036,0.008422851,-0.008574254,0.000000000,0.000000000,0.000000000,0.000000000,0.000000000,0.000000000,1725743164.192434072,9.430121968,1.234429666,10.048490062,0.000000000,0.000000000,0.000000000,0.000000000,0.000000000,0.000000000,0.000000000,0.000000000,1.000000000,0.000000000,0.000000000,0.000000000,0.000000000,0.000000000,0.000000000,0.000000000,0.000000000,0.000000000,0.000000000
1725743164.295335,-0.005540334,0.009474055,-0.009616372,0.000000000,0.000000000,0.000000000,0.000000000,0.000000000,0.000000000,1725743164.294817448,9.472767283,1.230339833,10.032230871,0.000000000,0.000000000,0.000000000,0.000000000,0.000000000,0.000000000,0.000000000,0.000000000,1.000000000,0.000000000,0.000000000,0.000000000,0.000000000,0.000000000,0.000000000,0.000000000,0.000000000,0.000000000,0.000000000
1725743164.397699,-0.005168327,0.007934575,-0.011536358,0.000000000,0.000000000,0.000000000,0.000000000,0.000000000,0.000000000,1725743164.397093058,9.483312352,1.236677485,10.031286334,0.000000000,0.000000000,0.000000000,0.000000000,0.000000000,0.000000000,0.000000000,0.000000000,1.000000000,0.000000000,0.000000000,0.000000000,0.000000000,0.000000000,0.000000000,0.000000000,0.000000000,0.000000000,0.000000000
1725743164.482923,-0.005981557,0.007231450,-0.010897577,0.000000000,0.000000000,0.000000000,0.000000000,0.000000000,0.000000000,1725743164.482442617,9.577200610,1.217093625,10.023629007,0.000000000,0.000000000,0.000000000,0.000000000,0.000000000,0.000000000,0.000000000,0.000000000,1.000000000,0.000000000,0.000000000,0.000000000,0.000000000,0.000000000,0.000000000,0.000000000,0.000000000,0.000000000,0.000000000
1725743164.602163,-0.006654635,0.006013885,-0.011044496,0.000000000,0.000000000,0.000000000,0.000000000,0.000000000,0.000000000,1725743164.601603031,9.524751428,1.216881774,10.038960499,0.000000000,0.000000000,0.000000000,0.000000000,0.000000000,0.000000000,0.000000000,0.000000000,1.000000000,0.000000000,0.000000000,0.000000000,0.000000000,0.000000000,0.000000000,0.000000000,0.000000000,0.000000000,0.000000000
1725743164.704657,-0.006325018,0.008069725,-0.009918875,0.000000000,0.000000000,0.000000000,0.000000000,0.000000000,0.000000000,1725743164.704112768,9.460206525,1.215578338,9.999923365,0.000000000,0.000000000,0.000000000,0.000000000,0.000000000,0.000000000,0.000000000,0.000000000,1.000000000,0.000000000,0.000000000,0.000000000,0.000000000,0.000000000,0.000000000,0.000000000,0.000000000,0.000000000,0.000000000
1725743164.806864,-0.006559903,0.007032563,-0.009422680,0.000000000,0.000000000,0.000000000,0.000000000,0.000000000,0.000000000,1725743164.806313992,9.479426993,1.184988876,10.033095227,0.000000000,0.000000000,0.000000000,0.000000000,0.000000000,0.000000000,0.000000000,0.000000000,1.000000000,0.000000000,0.000000000,0.000000000,0.000000000,0.000000000,0.000000000,0.000000000,0.000000000,0.000000000,0.000000000
1725743164.923740,-0.006211036,0.007379984,-0.010040585,0.000000000,0.000000000,0.000000000,0.000000000,0.000000000,0.000000000,1725743164.923168898,9.451914424,1.186459282,10.042496100,0.000000000,0.000000000,0.000000000,0.000000000,0.000000000,0.000000000,0.000000000,0.000000000,1.000000000,0.000000000,0.000000000,0.000000000,0.000000000,0.000000000,0.000000000,0.000000000,0.000000000,0.000000000,0.000000000
1725743165.024890,-0.006236450,0.010018471,-0.010682616,0.000000000,0.000000000,0.000000000,0.000000000,0.000000000,0.000000000,1725743165.024588346,9.493243589,1.184799465,10.085516849,0.000000000,0.000000000,0.000000000,0.000000000,0.000000000,0.000000000,0.000000000,0.000000000,1.000000000,0.000000000,0.000000000,0.000000000,0.000000000,0.000000000,0.000000000,0.000000000,0.000000000,0.000000000,0.000000000
1725743165.119790,-0.005849463,0.009605709,-0.009671319,0.000000000,0.000000000,0.000000000,0.000000000,0.000000000,0.000000000,1725743165.119204521,9.529475798,1.201932203,10.069904421,0.000000000,0.000000000,0.000000000,0.000000000,0.000000000,0.000000000,0.000000000,0.000000000,1.000000000,0.000000000,0.000000000,0.000000000,0.000000000,0.000000000,0.000000000,0.000000000,0.000000000,0.000000000,0.000000000
1725743165.204978,-0.007454590,0.007534093,-0.008566131,0.000000000,0.000000000,0.000000000,0.000000000,0.000000000,0.000000000,1725743165.204440117,9.502086532,1.193733436,10.078863343,0.000000000,0.000000000,0.000000000,0.000000000,0.000000000,0.000000000,0.000000000,0.000000000,1.000000000,0.000000000,0.000000000,0.000000000,0.000000000,0.000000000,0.000000000,0.000000000,0.000000000,0.000000000,0.000000000
1725743165.307161,-0.006458533,0.009229523,-0.009745542,0.000000000,0.000000000,0.000000000,0.000000000,0.000000000,0.000000000,1725743165.306670427,9.470429252,1.175263935,10.034244904,0.000000000,0.000000000,0.000000000,0.000000000,0.000000000,0.000000000,0.000000000,0.000000000,1.000000000,0.000000000,0.000000000,0.000000000,0.000000000,0.000000000,0.000000000,0.000000000,0.000000000,0.000000000,0.000000000
1725743165.392622,-0.005560811,0.009810775,-0.010868172,0.000000000,0.000000000,0.000000000,0.000000000,0.000000000,0.000000000,1725743165.392059565,9.507291042,1.176806772,10.040675919,0.000000000,0.000000000,0.000000000,0.000000000,0.000000000,0.000000000,0.000000000,0.000000000,1.000000000,0.000000000,0.000000000,0.000000000,0.000000000,0.000000000,0.000000000,0.000000000,0.000000000,0.000000000,0.000000000
1725743165.513857,-0.005578259,0.009302015,-0.009297789,0.000000000,0.000000000,0.000000000,0.000000000,0.000000000,0.000000000,1725743165.513238907,9.479019056,1.183565740,10.066644112,0.000000000,0.000000000,0.000000000,0.000000000,0.000000000,0.000000000,0.000000000,0.000000000,1.000000000,0.000000000,0.000000000,0.000000000,0.000000000,0.000000000,0.000000000,0.000000000,0.000000000,0.000000000,0.000000000
1725743165.614721,-0.006253139,0.010113484,-0.009112137,0.000000000,0.000000000,0.000000000,0.000000000,0.000000000,0.000000000,1725743165.614151478,9.439735358,1.197722811,10.041307896,0.000000000,0.000000000,0.000000000,0.000000000,0.000000000,0.000000000,0.000000000,0.000000000,1.000000000,0.000000000,0.000000000,0.000000000,0.000000000,0.000000000,0.000000000,0.000000000,0.000000000,0.000000000,0.000000000
1725743165.699952,-0.006457348,0.011585067,-0.009219158,0.000000000,0.000000000,0.000000000,0.000000000,0.000000000,0.000000000,1725743165.699432373,9.452426273,1.179653642,10.068157610,0.000000000,0.000000000,0.000000000,0.000000000,0.000000000,0.000000000,0.000000000,0.000000000,1.000000000,0.000000000,0.000000000,0.000000000,0.000000000,0.000000000,0.000000000,0.000000000,0.000000000,0.000000000,0.000000000
1725743165.802458,-0.006825914,0.011188394,-0.008406666,0.000000000,0.000000000,0.000000000,0.000000000,0.000000000,0.000000000,1725743165.801903725,9.480326906,1.171816567,10.020509469,0.000000000,0.000000000,0.000000000,0.000000000,0.000000000,0.000000000,0.000000000,0.000000000,1.000000000,0.000000000,0.000000000,0.000000000,0.000000000,0.000000000,0.000000000,0.000000000,0.000000000,0.000000000,0.000000000
1725743165.904677,-0.006876966,0.009124822,-0.008067036,0.000000000,0.000000000,0.000000000,0.000000000,0.000000000,0.000000000,1725743165.904122829,9.526609986,1.179873127,10.026623143,0.000000000,0.000000000,0.000000000,0.000000000,0.000000000,0.000000000,0.000000000,0.000000000,1.000000000,0.000000000,0.000000000,0.000000000,0.000000000,0.000000000,0.000000000,0.000000000,0.000000000,0.000000000,0.000000000
1725743165.991670,-0.005436950,0.007959805,-0.008829839,0.000000000,0.000000000,0.000000000,0.000000000,0.000000000,0.000000000,1725743165.991150379,9.609627015,1.198271525,10.078777880,0.000000000,0.000000000,0.000000000,0.000000000,0.000000000,0.000000000,0.000000000,0.000000000,1.000000000,0.000000000,0.000000000,0.000000000,0.000000000,0.000000000,0.000000000,0.000000000,0.000000000,0.000000000,0.000000000
1725743166.110717,-0.005249867,0.008576376,-0.009211240,0.000000000,0.000000000,0.000000000,0.000000000,0.000000000,0.000000000,1725743166.110164165,9.532582062,1.196693135,10.091682641,0.000000000,0.000000000,0.000000000,0.000000000,0.000000000,0.000000000,0.000000000,0.000000000,1.000000000,0.000000000,0.000000000,0.000000000,0.000000000,0.000000000,0.000000000,0.000000000,0.000000000,0.000000000,0.000000000
1725743166.228632,-0.004889862,0.008684815,-0.009934865,0.000000000,0.000000000,0.000000000,0.000000000,0.000000000,0.000000000,1725743166.228092670,9.507232193,1.185126353,10.086159924,0.000000000,0.000000000,0.000000000,0.000000000,0.000000000,0.000000000,0.000000000,0.000000000,1.000000000,0.000000000,0.000000000,0.000000000,0.000000000,0.000000000,0.000000000,0.000000000,0.000000000,0.000000000,0.000000000
